
{
 "queryCost": 1,
 "latitude": 41.8843,
 "longitude": -87.6324,
 "resolvedAddress": "Chicago, IL, United States",
 "address": "Chicago",
 "timezone": "America/Chicago",
 "tzoffset": -5,
 "days": [
  {
   "datetime": "2023-06-30",
   "datetimeEpoch": 1688101200,
   "tempmax": 88.1,
   "tempmin": 71.5,
   "temp": 79.4,
   "feelslikemax": 91.7,
   "feelslikemin": 71.5,
   "feelslike": 80.9,
   "dew": 68.3,
   "humidity": 70.7,
   "precip": 0,
   "precipprob": 22,
   "precipcover": 0,
   "preciptype": null,
   "snow": 0,
   "snowdepth": 0,
   "windgust": 11.4,
   "windspeed": 10.3,
   "winddir": 227.4,
   "pressure": 1012.2,
   "cloudcover": 67.5,
   "visibility": 7.4,
   "solarradiation": 253.2,
   "solarenergy": 21.7,
   "uvindex": 9,
   "severerisk": 30,
   "sunrise": "05:18:41",
   "sunriseEpoch": 1688120321,
   "sunset": "20:29:40",
   "sunsetEpoch": 1688174980,
   "moonphase": 0.41,
   "conditions": "Partially cloudy",
   "description": "Partly cloudy throughout the day.",
   "icon": "partly-cloudy-day",
   "stations": [
    "KORD",
    "KMDW",
    "F1983",
    "F7086",
    "KPWK"
   ],
   "source": "comb"
  }
 ],
 "stations": {
  "F1607": {
   "distance": 4490,
   "latitude": 41.892,
   "longitude": -87.685,
   "useCount": 0,
   "id": "F1607",
   "name": "FW1607 Chicago IL US",
   "quality": 0,
   "contribution": 0
  },
  "KORD": {
   "distance": 24589,
   "latitude": 41.98,
   "longitude": -87.9,
   "useCount": 0,
   "id": "KORD",
   "name": "KORD",
   "quality": 100,
   "contribution": 0
  },
  "KMDW": {
   "distance": 15164,
   "latitude": 41.78,
   "longitude": -87.75,
   "useCount": 0,
   "id": "KMDW",
   "name": "KMDW",
   "quality": 100,
   "contribution": 0
  },
  "F1983": {
   "distance": 18837,
   "latitude": 42.023,
   "longitude": -87.764,
   "useCount": 0,
   "id": "F1983",
   "name": "FW1983 Skokie IL US",
   "quality": 0,
   "contribution": 0
  },
  "F7086": {
   "distance": 20394,
   "latitude": 41.925,
   "longitude": -87.872,
   "useCount": 0,
   "id": "F7086",
   "name": "FW7086 Franklin Park IL US",
   "quality": 0,
   "contribution": 0
  },
  "KPWK": {
   "distance": 35418,
   "latitude": 42.12,
   "longitude": -87.92,
   "useCount": 0,
   "id": "KPWK",
   "name": "KPWK",
   "quality": 100,
   "contribution": 0
  },
  "CHII2": {
   "distance": 16914,
   "latitude": 42,
   "longitude": -87.5,
   "useCount": 0,
   "id": "CHII2",
   "name": "CHII2 (maritime)",
   "quality": 50,
   "contribution": 0
  }
 },
 "currentConditions": {
  "datetime": "10:59:00",
  "datetimeEpoch": 1688140740,
  "temp": 87.3,
  "feelslike": 89.9,
  "humidity": 49.9,
  "dew": 66.3,
  "precip": 0,
  "precipprob": 0,
  "snow": 0,
  "snowdepth": 0,
  "preciptype": null,
  "windgust": 8.1,
  "windspeed": 7.4,
  "winddir": 214,
  "pressure": 1014,
  "visibility": 6.8,
  "cloudcover": 88.3,
  "solarradiation": 373,
  "solarenergy": 1.3,
  "uvindex": 4,
  "conditions": "Partially cloudy",
  "icon": "partly-cloudy-day",
  "stations": [
   "F1607",
   "KMDW",
   "CHII2"
  ],
  "source": "obs",
  "sunrise": "05:18:41",
  "sunriseEpoch": 1688120321,
  "sunset": "20:29:40",
  "sunsetEpoch": 1688174980,
  "moonphase": 0.41
 }
}
